{"type":"FeatureCollection","features":[{"type":"Feature","properties":{"ID":1,"ID_Expropriation":1,"Symbole":"S1","Nom":"Nom1","Description":"Description1","Num_Foncier":"T/1","Superficie":1,"Commune":"Casablanca","Province":"Casablanca","Region":"Casablanca"},"geometry":{"type":"Polygon","coordinates":[[[-7.522888183593749,33.42456461884056],[-7.5125885009765625,33.39647903888081],[-7.499542236328124,33.367237465838315],[-7.487869262695312,33.35691456311512],[-7.5146484375,33.3425751668884],[-7.5331878662109375,33.304133941114394],[-7.551727294921875,33.29954281092482],[-7.566833496093749,33.305281685899445],[-7.567520141601562,33.328807124754434],[-7.539367675781249,33.358061612778876],[-7.5331878662109375,33.412529053733444],[-7.522888183593749,33.42456461884056]]]}},{"type":"Feature","properties":{"ID":2,"ID_Expropriation":1,"Symbole":"S1","Nom":"Nom2","Description":"Description2","Num_Foncier":"T/2","Commune":"Casablanca","Province":"Casablanca","Region":"Casablanca"},"geometry":{"type":"Polygon","coordinates":[[[-7.763214111328125,33.42914915719729],[-7.801666259765624,33.320200993413906],[-7.695236206054687,33.36322314918339],[-7.679443359375,33.44576607883008],[-7.763214111328125,33.42914915719729]]]}},{"type":"Feature","properties":{"ID":3,"ID_Expropriation":2,"Symbole":"S2","Nom":"Nom3","Description":"Description3","Num_Foncier":"T/3","Commune":"Casablanca","Province":"Casablanca","Region":"Casablanca"},"geometry":{"type":"Polygon","coordinates":[[[-7.4851226806640625,33.46638955379554],[-7.4192047119140625,33.40565083901331],[-7.375946044921875,33.45722417051078],[-7.430877685546875,33.486435450999885],[-7.4851226806640625,33.46638955379554]]]}},{"type":"Feature","properties":{"ID":4,"ID_Expropriation":3,"Symbole":"S3","Nom":"Nom4","Description":"Description4","Num_Foncier":"T/4","Commune":"Casablanca","Province":"Casablanca","Region":"Casablanca"},"geometry":{"type":"Polygon","coordinates":[[[-7.321014404296874,33.32765968968343],[-7.487869262695312,33.240410429958715],[-7.378692626953124,33.178364560075266],[-7.2447967529296875,33.25763758619377],[-7.321014404296874,33.32765968968343]]]}},{"type":"Feature","properties":{"ID":5,"ID_Expropriation":3,"Symbole":"S3","Nom":"Nom5","Description":"Description5","Num_Foncier":"T/5","Commune":"Casablanca","Province":"Casablanca","Region":"Casablanca"},"geometry":{"type":"Polygon","coordinates":[[[-7.3107147216796875,33.36322314918339],[-7.2173309326171875,33.35920864732515],[-7.2173309326171875,33.39590576922804],[-7.3107147216796875,33.36322314918339]]]}},{"type":"Feature","properties":{"ID":6,"ID_Expropriation":3,"Symbole":"S3","Nom":"Nom6","Description":"Description6","Num_Foncier":"T/6","Commune":"Casablanca","Province":"Casablanca","Region":"Casablanca"},"geometry":{"type":"Polygon","coordinates":[[[-7.532501220703124,33.22605187269161],[-7.5592803955078125,33.20479688179691],[-7.5702667236328125,33.12662608415668],[-7.509155273437499,33.135251282563836],[-7.448043823242188,33.16686975849462],[-7.532501220703124,33.22605187269161]]]}},{"type":"Feature","properties":{"ID":7,"ID_Expropriation":4,"Symbole":"S4","Nom":"Nom7","Description":"Description7","Num_Foncier":"T/7","Commune":"Casablanca","Province":"Casablanca","Region":"Casablanca"},"geometry":{"type":"Polygon","coordinates":[[[-7.679443359375,33.27428727554674],[-7.71240234375,33.271990955382115],[-7.779006958007812,33.22432868739248],[-7.7213287353515625,33.19100710048419],[-7.6430511474609375,33.2335186167059],[-7.679443359375,33.27428727554674]]]}},{"type":"Feature","properties":{"ID":8,"ID_Expropriation":4,"Symbole":"S4","Nom":"Nom8","Description":"Description8","Num_Foncier":"T/8","Commune":"Casablanca","Province":"Casablanca","Region":"Casablanca"},"geometry":{"type":"Polygon","coordinates":[[[-7.39105224609375,33.5963189611327],[-7.337493896484375,33.65120829920497],[-7.227630615234374,33.63520252129719],[-7.28668212890625,33.55741786324217],[-7.39105224609375,33.5963189611327]]]}},{"type":"Feature","properties":{"ID":9,"ID_Expropriation":5,"Symbole":"S5","Nom":"Nom9","Description":"Description9","Num_Foncier":"T/9","Commune":"Casablanca","Province":"Casablanca","Region":"Casablanca"},"geometry":{"type":"Polygon","coordinates":[[[-7.933502197265625,33.46008845688024],[-8.06121826171875,33.417687357334934],[-8.062591552734375,33.382146163182604],[-7.89093017578125,33.41883360541482],[-7.933502197265625,33.46008845688024]]]}}]}